CityID,lat,long,coordinates,full_name
4001,32.45357132,-99.73264313,[ 32.45357 -99.73264],"Abilene, TX"
4002,41.08481979,-81.51560974,[ 41.08482 -81.51561],"Akron, OH"
4003,42.65172577,-73.75509644,[ 42.651726 -73.7551  ],"Albany, NY"
4004,35.08424759,-106.64923859,[  35.084248 -106.64924 ],"Albuquerque, NM"
4005,40.60275269,-75.46975708,[ 40.602753 -75.46976 ],"Allentown, PA"
4006,42.02680206,-93.62017822,[ 42.026802 -93.62018 ],"Ames, IA"
4007,42.3758049,-72.51987457,[ 42.375805 -72.519875],"Amherst, MA"
4008,33.83449173,-117.91564178,[  33.83449 -117.91564],"Anaheim, CA"
4009,61.21658325,-149.89959717,[  61.216583 -149.8996  ],"Anchorage, AK"
4010,42.28141785,-83.74847412,[ 42.281418 -83.748474],"Ann Arbor, MI"
4011,38.97829056,-76.49568176,[ 38.97829 -76.49568],"Annapolis, MD"
4012,32.7355957,-97.10710907,[ 32.735596 -97.10711 ],"Arlington, TX"
4013,35.59591293,-82.5500412,[ 35.595913 -82.55004 ],"Asheville, NC"
4014,33.95741272,-83.37680054,[ 33.957413 -83.3768  ],"Athens, GA"
4015,39.32920074,-82.10116577,[ 39.3292   -82.101166],"Athens, OH"
4016,33.7485466,-84.39150238,[ 33.748547 -84.3915  ],"Atlanta, GA"
4017,39.36061096,-74.43187714,[ 39.36061 -74.43188],"Atlantic City, NJ"
4018,32.60907745,-85.4817276,[ 32.609077 -85.48173 ],"Auburn, AL"
4019,42.67032242,-83.22225952,[ 42.670322 -83.22226 ],"Auburn Hills, MI"
4020,30.26497841,-97.74659729,[ 30.264978 -97.7466  ],"Austin, TX"
4021,35.37340546,-119.01891327,[  35.373405 -119.01891 ],"Bakersfield, CA"
4022,39.29044342,-76.61233521,[ 39.290443 -76.612335],"Baltimore, MD"
4023,44.80160141,-68.77133179,[ 44.8016  -68.77133],"Bangor, ME"
4024,30.44949341,-91.09339905,[ 30.449493 -91.0934  ],"Baton Rouge, LA"
4025,18.39884758,-66.1582489,[ 18.398848 -66.15825 ],"Bayamon, PR"
4026,30.08615303,-94.10201263,[ 30.086153 -94.10201 ],"Beaumont, TX"
4027,37.8690567,-122.27046204,[  37.869057 -122.27046 ],"Berkeley, CA"
4028,40.62071609,-75.37848663,[ 40.620716 -75.37849 ],"Bethlehem, PA"
4029,45.78264999,-108.50457764,[  45.78265 -108.50458],"Billings, MT"
4030,33.52285767,-86.80770874,[ 33.522858 -86.80771 ],"Birmingham, AL"
4031,37.22578049,-80.4101181,[ 37.22578 -80.41012],"Blacksburg, VA"
4032,39.16658783,-86.53488922,[ 39.166588 -86.53489 ],"Bloomington, IN"
4033,26.35051918,-80.08982849,[ 26.35052 -80.08983],"Boca Raton, FL"
4034,35.25055313,-81.66670227,[ 35.250553 -81.6667  ],"Boiling Springs, NC"
4035,43.61579132,-116.20157623,[  43.61579 -116.20158],"Boise, ID"
4036,36.20401001,-81.66943359,[ 36.20401 -81.66943],"Boone, NC"
4037,18.17147255,-66.04246521,[ 18.171473 -66.042465],"Borinquen, PR"
4038,32.52637863,-93.71826172,[ 32.52638 -93.71826],"Bossier City, LA"
4039,42.35899353,-71.0586319,[ 42.358994 -71.05863 ],"Boston, MA"
4040,40.01687241,-105.27962494,[  40.016872 -105.279625],"Boulder, CO"
4041,37.00240326,-86.44348907,[ 37.002403 -86.44349 ],"Bowling Green, KY"
4042,41.37491226,-83.6504364,[ 41.374912 -83.65044 ],"Bowling Green, OH"
4043,45.67929459,-111.04660797,[  45.679295 -111.04661 ],"Bozeman, MT"
4044,41.1791954,-73.18947601,[ 41.179195 -73.189476],"Bridgeport, CT"
4045,40.8261528,-73.9202652,[ 40.826153 -73.920265],"Bronx, NY"
4046,44.30794525,-96.7985611,[ 44.307945 -96.79856 ],"Brookings, SD"
4047,40.69252777,-73.99099731,[ 40.692528 -73.991   ],"Brooklyn, NY"
4048,40.69521332,-73.99307251,[ 40.695213 -73.99307 ],"Brooklyn Heights, NY"
4049,42.8876915,-78.87937164,[ 42.88769 -78.87937],"Buffalo, NY"
4050,35.40706253,-78.7372818,[ 35.407063 -78.73728 ],"Buies Creek, NC"
4051,44.4759903,-73.21099854,[ 44.47599 -73.211  ],"Burlington, VT"
4052,42.36524963,-71.10501862,[ 42.36525 -71.10502],"Cambridge, MA"
4053,21.19022942,-86.82003021,[ 21.19023 -86.82003],"Cancun, MX"
4054,37.31316757,-89.55242157,[ 37.313168 -89.55242 ],"Cape Girardeau, MO"
4055,37.72527695,-89.21672058,[ 37.725277 -89.21672 ],"Carbondale, IL"
4056,42.85008621,-106.32520294,[  42.850086 -106.3252  ],"Casper, WY"
4057,37.67734528,-113.06174469,[  37.677345 -113.061745],"Cedar City, UT"
4058,42.53780746,-92.45339966,[ 42.537807 -92.4534  ],"Cedar Falls, IA"
4059,30.50485611,-97.81985474,[ 30.504856 -97.819855],"Cedar Park, TX"
4060,40.11632919,-88.24352264,[ 40.11633 -88.24352],"Champaign, IL"
4061,35.91026306,-79.05547333,[ 35.910263 -79.05547 ],"Chapel Hill, NC"
4062,39.49427032,-88.17755127,[ 39.49427 -88.17755],"Charleston, IL"
4063,36.11706924,-77.38111115,[ 36.11707 -77.38111],"Charleston, NC"
4064,32.78306198,-79.93444061,[ 32.783062 -79.93444 ],"Charleston, SC"
4065,38.35119247,-81.63835907,[ 38.351192 -81.63836 ],"Charleston, WV"
4066,35.2237854,-80.84114075,[ 35.223785 -80.84114 ],"Charlotte, NC"
4067,38.03104782,-78.47415924,[ 38.031048 -78.47416 ],"Charlottesville, VA"
4068,35.04575729,-85.30828857,[ 35.045757 -85.30829 ],"Chattanooga, TN"
4069,47.4955101,-117.57553101,[  47.49551 -117.57553],"Cheney, WA"
4070,42.32443619,-71.17269897,[ 42.324436 -71.1727  ],"Chestnut Hill, MA"
4071,41.8832283,-87.63240051,[ 41.88323 -87.6324 ],"Chicago, IL"
4072,39.10369873,-84.51361084,[ 39.1037  -84.51361],"Cincinnati, OH"
4073,36.5272789,-87.3603363,[ 36.52728 -87.36034],"Clarksville, TN"
4074,34.68868637,-82.83488464,[ 34.688686 -82.834885],"Clemson, SC"
4075,41.50554657,-81.6914978,[ 41.505547 -81.6915  ],"Cleveland, OH"
4076,34.47266769,-81.88078308,[ 34.472668 -81.88078 ],"Clinton, SC"
4077,38.98719406,-76.94599915,[ 38.987194 -76.946   ],"College Park, MD"
4078,30.62237358,-96.32585144,[ 30.622374 -96.32585 ],"College Station, TX"
4079,34.00928497,-81.03709412,[ 34.009285 -81.037094],"Columbia, SC"
4080,39.96276093,-82.99629211,[ 39.96276 -82.99629],"Columbus, OH"
4081,35.09179688,-92.43669891,[ 35.091797 -92.4367  ],"Conway, AR"
4082,33.83794403,-79.05991364,[ 33.837944 -79.05991 ],"Conway, SC"
4083,36.15658951,-85.50101471,[ 36.15659  -85.501015],"Cookeville, TN"
4084,25.71029091,-80.26865387,[ 25.71029  -80.268654],"Coral Gables, FL"
4085,27.79641533,-97.40412903,[ 27.796415 -97.40413 ],"Corpus Christi, TX"
4086,44.57164764,-123.27770233,[  44.571648 -123.2777  ],"Corvallis, OR"
4087,35.30700684,-83.18904877,[ 35.307007 -83.18905 ],"Cullowhee, NC"
4088,32.77797699,-96.79621124,[ 32.777977 -96.79621 ],"Dallas, TX"
4089,35.4992485,-80.84848785,[ 35.49925 -80.84849],"Davidson, NC"
4090,38.54672623,-121.74433899,[  38.546726 -121.74434 ],"Davis, CA"
4091,39.76098251,-84.19219971,[ 39.760983 -84.1922  ],"Dayton, OH"
4092,29.20708466,-81.02072906,[ 29.207085 -81.02073 ],"Daytona Beach, FL"
4093,41.9299202,-88.7513504,[ 41.92992 -88.75135],"DeKalb, IL"
4094,29.02809334,-81.29927063,[ 29.028093 -81.29927 ],"DeLand, FL"
4095,33.21553421,-97.13244629,[ 33.215534 -97.13245 ],"Denton, TX"
4096,39.73845291,-104.98485565,[  39.738453 -104.984856],"Denver, CO"
4097,41.58882141,-93.62030792,[ 41.58882 -93.62031],"Des Moines, IA"
4098,42.33293915,-83.0478363,[ 42.33294 -83.04784],"Detroit, MI"
4099,39.15882874,-75.52114105,[ 39.15883 -75.52114],"Dover, DE"
4100,34.00379562,-84.14555359,[ 34.003796 -84.14555 ],"Duluth, GA"
4101,35.99694824,-78.89902496,[ 35.99695  -78.899025],"Durham, NC"
4102,43.13395309,-70.9189682,[ 43.133953 -70.91897 ],"Durham, NH"
4103,42.74687576,-84.48369598,[ 42.746876 -84.483696],"East Lansing, MI"
4104,40.83179855,-74.09789276,[ 40.8318  -74.09789],"East Rutherford, NJ"
4105,40.68935394,-75.21669769,[ 40.689354 -75.2167  ],"Easton, PA"
4106,26.29935837,-98.16270447,[ 26.299358 -98.162704],"Edinburg, TX"
4107,38.81130981,-89.95572662,[ 38.81131 -89.95573],"Edwardsville, IL"
4108,31.76010704,-106.49229431,[  31.760107 -106.492294],"El Paso, TX"
4109,36.10293961,-79.50671387,[ 36.10294  -79.506714],"Elon, NC"
4110,39.70450974,-77.32595825,[ 39.70451 -77.32596],"Emmitsburg, MD"
4111,26.43765068,-81.80499268,[ 26.43765 -81.80499],"Estero, FL"
4112,44.05215454,-123.09119415,[  44.052155 -123.091194],"Eugene, OR"
4113,42.05215836,-87.68786621,[ 42.05216 -87.68787],"Evanston, IL"
4114,37.97570801,-87.56990814,[ 37.975708 -87.56991 ],"Evansville, IN"
4115,38.84712219,-77.30631256,[ 38.847122 -77.30631 ],"Fairfax, VA"
4116,41.14332199,-73.24980927,[ 41.143322 -73.24981 ],"Fairfield, CT"
4117,46.87696075,-96.78463745,[ 46.87696 -96.78464],"Fargo, ND"
4118,37.29504776,-78.39463806,[ 37.295048 -78.39464 ],"Farmville, VA"
4119,36.0619278,-94.1605835,[ 36.061928 -94.16058 ],"Fayetteville, AR"
4120,35.19817734,-111.65132141,[  35.198177 -111.65132 ],"Flagstaff, AZ"
4121,40.58897018,-105.0824585,[  40.58897 -105.08246],"Fort Collins, CO"
4122,31.13290215,-97.76599884,[ 31.132902 -97.766   ],"Fort Hood, TX"
4123,26.61414909,-81.82576752,[ 26.61415 -81.82577],"Fort Myers, FL"
4124,41.07747269,-85.13749695,[ 41.077473 -85.1375  ],"Fort Wayne, IN"
4125,32.74990463,-97.33033752,[ 32.749905 -97.33034 ],"Fort Worth, TX"
4126,36.73165512,-119.78585815,[  36.731655 -119.78586 ],"Fresno, CA"
4127,33.87034607,-117.92430115,[  33.870346 -117.9243  ],"Fullerton, CA"
4128,29.65197563,-82.32501984,[ 29.651976 -82.32502 ],"Gainesville, FL"
4129,32.91434479,-96.63656616,[ 32.914345 -96.636566],"Garland, TX"
4130,33.53855896,-112.18370056,[  33.53856 -112.1837 ],"Glendale, AZ"
4131,43.30893326,-73.6434021,[ 43.308933 -73.6434  ],"Glens Falls, NY"
4132,32.52989578,-92.7135849,[ 32.529896 -92.713585],"Grambling, LA"
4133,47.92570496,-97.03607178,[ 47.925705 -97.03607 ],"Grand Forks, ND"
4134,40.42255402,-104.69444275,[  40.422554 -104.69444 ],"Greeley, CO"
4135,44.51328659,-88.01325989,[ 44.513287 -88.01326 ],"Green Bay, WI"
4136,36.0727005,-79.79389954,[ 36.0727 -79.7939],"Greensboro, NC"
4137,33.39943695,-91.0534668,[ 33.399437 -91.05347 ],"Greenville, MS"
4138,35.61133194,-77.37409973,[ 35.611332 -77.3741  ],"Greenville, NC"
4139,34.85074615,-82.39896393,[ 34.850746 -82.398964],"Greenville, SC"
4140,33.52146912,-90.19284821,[ 33.52147 -90.19285],"Greenwood, MS"
4141,30.36976814,-89.09153748,[ 30.369768 -89.09154 ],"Gulfport, MS"
4142,40.88134003,-74.04380035,[ 40.88134 -74.0438 ],"Hackensack, NJ"
4143,41.38291931,-72.90774536,[ 41.38292  -72.907745],"Hamden, CT"
4144,42.82689285,-75.54428864,[ 42.826893 -75.54429 ],"Hamilton, NY"
4145,30.50370216,-90.4582901,[ 30.503702 -90.45829 ],"Hammond, LA"
4146,37.02826691,-76.34233856,[ 37.028267 -76.34234 ],"Hampton, VA"
4147,43.70086288,-72.28939819,[ 43.700863 -72.2894  ],"Hanover, NH"
4148,38.43598175,-78.87999725,[ 38.43598 -78.88   ],"Harrisonburg, VA"
4149,41.76577377,-72.6733551,[ 41.765774 -72.673355],"Hartford, CT"
4150,31.3264637,-89.28966522,[ 31.326464 -89.289665],"Hattiesburg, MS"
4151,40.70690155,-73.62034607,[ 40.7069   -73.620346],"Hempstead, NY"
4152,35.95397186,-80.00393677,[ 35.95397 -80.00394],"High Point, NC"
4153,39.03372192,-84.45326233,[ 39.033722 -84.45326 ],"Highland Heights, KY"
4154,42.06296158,-88.12294006,[ 42.06296 -88.12294],"Hoffman Estates, IL"
4155,21.30991936,-157.8581543,[  21.30992 -157.85815],"Honolulu, HI"
4156,34.50278473,-93.05565643,[ 34.502785 -93.05566 ],"Hot Springs, AR"
4157,29.76080322,-95.36950684,[ 29.760803 -95.36951 ],"Houston, TX"
4158,38.4191246,-82.44522095,[ 38.419125 -82.44522 ],"Huntington, WV"
4159,34.72954178,-86.58530426,[ 34.72954  -86.585304],"Huntsville, AL"
4160,30.72039032,-95.55143738,[ 30.72039 -95.55144],"Huntsville, TX"
4161,39.7908287,-86.14778137,[ 39.79083 -86.14778],"Indianapolis, IN"
4162,41.66123962,-91.53012848,[ 41.66124 -91.53013],"Iowa City, IA"
4163,33.68590927,-117.82472229,[  33.68591 -117.82472],"Irvine, CA"
4164,42.44049454,-76.49570465,[ 42.440495 -76.495705],"Ithaca, NY"
4165,33.49609375,-90.31991577,[ 33.496094 -90.319916],"Itta Bena, MS"
4166,32.30289841,-90.18348694,[ 32.3029  -90.18349],"Jackson, MS"
4167,33.81655121,-85.76122284,[ 33.81655 -85.76122],"Jacksonville, AL"
4168,30.32596779,-81.65676117,[ 30.325968 -81.65676 ],"Jacksonville, FL"
4169,40.71749496,-74.04411316,[ 40.717495 -74.04411 ],"Jersey City, NJ"
4170,36.32095718,-82.34175873,[ 36.320957 -82.34176 ],"Johnson City, TN"
4171,40.32594299,-78.91749573,[ 40.325943 -78.917496],"Johnstown, PA"
4172,35.83839417,-90.71050262,[ 35.838394 -90.7105  ],"Jonesboro, AR"
4173,42.28977585,-85.58467865,[ 42.289776 -85.58468 ],"Kalamazoo, MI"
4174,39.09979248,-94.57855988,[ 39.099792 -94.57856 ],"Kansas City, MO"
4175,29.79485703,-95.81652832,[ 29.794857 -95.81653 ],"Katy, TX"
4176,34.02535248,-84.61882019,[ 34.025352 -84.61882 ],"Kennesaw, GA"
4177,41.15483475,-81.35638428,[ 41.154835 -81.356384],"Kent, OH"
4178,47.38085175,-122.23741913,[  47.38085 -122.23742],"Kent, WA"
4179,41.47999573,-71.52317047,[ 41.479996 -71.52317 ],"Kingston, RI"
4180,35.96264267,-83.91672516,[ 35.962643 -83.916725],"Knoxville, TN"
4181,30.22126007,-92.01877594,[ 30.22126  -92.018776],"Lafayette, LA"
4182,20.87711334,-156.68132019,[  20.877113 -156.68132 ],"Lahaina, HI"
4183,28.39367867,-81.52902222,[ 28.393679 -81.52902 ],"Lake Buena Vista, FL"
4184,30.2292881,-93.21710968,[ 30.229288 -93.21711 ],"Lake Charles, LA"
4185,28.04415512,-81.94896698,[ 28.044155 -81.94897 ],"Lakeland, FL"
4186,41.31102753,-105.59360504,[  41.311028 -105.593605],"Laramie, WY"
4187,32.31614685,-106.78063965,[  32.316147 -106.78064 ],"Las Cruces, NM"
4188,36.16909027,-115.14057922,[  36.16909 -115.14058],"Las Vegas, NV"
4189,38.97315598,-95.23825073,[ 38.973156 -95.23825 ],"Lawrence, KS"
4190,40.2988472,-74.73036194,[ 40.298847 -74.73036 ],"Lawrenceville, NJ"
4191,40.96631241,-76.88493347,[ 40.966312 -76.88493 ],"Lewisburg, PA"
4192,43.16699982,-78.96700287,[ 43.167 -78.967],"Lewiston, NY"
4193,38.0463562,-84.49702454,[ 38.046356 -84.497025],"Lexington, KY"
4194,37.78093719,-79.44655609,[ 37.780937 -79.446556],"Lexington, VA"
4195,40.81359863,-96.7026062,[ 40.8136  -96.70261],"Lincoln, NE"
4196,34.74874496,-92.27510834,[ 34.748745 -92.27511 ],"Little Rock, AR"
4197,41.73521042,-111.83485413,[  41.73521  -111.834854],"Logan, UT"
4198,33.77171326,-118.18131256,[  33.771713 -118.18131 ],"Long Beach, CA"
4199,40.50883865,-78.63748169,[ 40.50884 -78.63748],"Loretto, PA"
4200,31.82138443,-91.05278778,[ 31.821384 -91.05279 ],"Lorman, MS"
4201,34.05223846,-118.24334717,[  34.05224 -118.24335],"Los Angeles, CA"
4202,42.70488739,-73.75450134,[ 42.704887 -73.7545  ],"Loudonville, NY"
4203,38.19937515,-85.65352631,[ 38.199375 -85.65353 ],"Louisville, KY"
4204,42.6454277,-71.30740356,[ 42.645428 -71.3074  ],"Lowell, MA"
4205,33.58368683,-101.85494995,[  33.583687 -101.85495 ],"Lubbock, TX"
4206,37.41434479,-79.14320374,[ 37.414345 -79.1432  ],"Lynchburg, VA"
4207,40.45993042,-90.67169952,[ 40.45993 -90.6717 ],"Macomb, IL"
4208,32.83809662,-83.67050934,[ 32.838097 -83.67051 ],"Macon, GA"
4209,43.07392502,-89.38524628,[ 43.073925 -89.38525 ],"Madison, WI"
4210,34.03579712,-118.69153595,[  34.035797 -118.691536],"Malibu, CA"
4211,39.18668747,-96.56659698,[ 39.186687 -96.5666  ],"Manhattan, KS"
4212,36.34318161,-88.85049438,[ 36.34318  -88.850494],"Martin, TN"
4213,35.14337921,-90.05213928,[ 35.14338 -90.05214],"Memphis, TN"
4214,25.77508354,-80.19470215,[ 25.775084 -80.1947  ],"Miami, FL"
4215,43.04107285,-87.90942383,[ 43.041073 -87.909424],"Milwaukee, WI"
4216,44.97748566,-93.26436615,[ 44.977486 -93.264366],"Minneapolis, MN"
4217,46.87212753,-113.99401855,[  46.872128 -113.99402 ],"Missoula, MT"
4218,30.68894386,-88.04482269,[ 30.688944 -88.04482 ],"Mobile, AL"
4219,32.50075912,-92.11122131,[ 32.50076 -92.11122],"Monroe, LA"
4220,32.37654114,-86.29965973,[ 32.37654 -86.29966],"Montgomery, AL"
4221,40.50575638,-80.20788574,[ 40.505756 -80.207886],"Moon Township, PA"
4222,37.83852768,-122.12607574,[  37.838528 -122.126076],"Moraga, CA"
4223,38.18452835,-83.43128204,[ 38.18453 -83.43128],"Morehead, KY"
4224,39.62975693,-79.95594788,[ 39.629757 -79.95595 ],"Morgantown, WV"
4225,46.73368835,-117.0,[  46.73369 -117.     ],"Moscow, ID"
4226,43.59810638,-84.7675705,[ 43.598106 -84.76757 ],"Mt. Pleasant, MI"
4227,40.19365311,-85.38652039,[ 40.193653 -85.38652 ],"Muncie, IN"
4228,35.84596252,-86.39144897,[ 35.845963 -86.39145 ],"Murfreesboro, TN"
4229,36.61058044,-88.31525421,[ 36.61058  -88.315254],"Murray, KY"
4230,33.68785095,-78.8838501,[ 33.68785 -78.88385],"Myrtle Beach, SC"
4231,31.60386848,-94.65601349,[ 31.603868 -94.65601 ],"Nacogdoches, TX"
4232,43.58532333,-116.57357788,[  43.585323 -116.57358 ],"Nampa, ID"
4233,36.1663475,-86.77905273,[ 36.166348 -86.77905 ],"Nashville, TN"
4234,31.75348282,-93.08737946,[ 31.753483 -93.08738 ],"Natchitoches, LA"
4235,41.66752625,-72.78343964,[ 41.667526 -72.78344 ],"New Britain, CT"
4236,41.30825043,-72.92416382,[ 41.30825  -72.924164],"New Haven, CT"
4237,29.95176315,-90.07461548,[ 29.951763 -90.074615],"New Orleans, LA"
4238,40.9115448,-73.78233337,[ 40.911545 -73.78233 ],"New Rochelle, NY"
4239,40.71304703,-74.00723267,[ 40.713047 -74.00723 ],"New York, NY"
4240,39.68165588,-75.75361633,[ 39.681656 -75.75362 ],"Newark, DE"
4241,40.73150635,-74.17438507,[ 40.731506 -74.174385],"Newark, NJ"
4242,43.09446335,-79.05643463,[ 43.094463 -79.056435],"Niagara Falls, NY"
4243,30.51872063,-86.47814941,[ 30.51872 -86.47815],"Niceville, FL"
4244,36.84616089,-76.2858963,[ 36.84616 -76.2859 ],"Norfolk, VA"
4245,34.78921509,-86.57365417,[ 34.789215 -86.573654],"Normal, AL"
4246,40.51221848,-88.98860931,[ 40.51222 -88.98861],"Normal, IL"
4247,35.22105026,-97.44594574,[ 35.22105  -97.445946],"Norman, OK"
4248,34.75605774,-92.26777649,[ 34.756058 -92.26778 ],"North Little Rock, AR"
4249,34.24325943,-118.53236389,[  34.24326  -118.532364],"Northridge, CA"
4250,41.7056694,-86.24752808,[ 41.70567 -86.24753],"Notre Dame, IN"
4251,37.80482864,-122.2724762,[  37.80483 -122.27248],"Oakland, CA"
4252,38.34000015,-87.34445953,[ 38.34    -87.34446],"Oakland City, IN"
4253,41.22278595,-111.97034454,[  41.222786 -111.970345],"Ogden, UT"
4254,35.46849442,-97.52126312,[ 35.468494 -97.52126 ],"Oklahoma City, OK"
4255,41.25865173,-95.93719482,[ 41.25865  -95.937195],"Omaha, NE"
4256,33.48741531,-80.86392975,[ 33.487415 -80.86393 ],"Orangeburg, SC"
4257,40.296875,-111.69450378,[  40.296875 -111.6945  ],"Orem, UT"
4258,28.53833008,-81.37887573,[ 28.53833  -81.378876],"Orlando, FL"
4259,44.88299942,-68.67199707,[ 44.883 -68.672],"Orono, ME"
4260,34.3667984,-89.51862335,[ 34.3668  -89.51862],"Oxford, MS"
4261,39.50739288,-84.74565887,[ 39.507393 -84.74566 ],"Oxford, OH"
4262,36.11553574,-115.15795135,[  36.115536 -115.15795 ],"Paradise, NV"
4263,25.08267021,-77.31232452,[ 25.08267  -77.312325],"Paradise Island, BA"
4264,21.3509215,-157.9459534,[  21.350922 -157.94595 ],"Pearl Harbor-Hickam, HI"
4265,40.69459152,-89.59036255,[ 40.69459 -89.59036],"Peoria, IL"
4266,39.95106125,-75.1656189,[ 39.95106 -75.16562],"Philadelphia, PA"
4267,33.44820404,-112.07258606,[  33.448204 -112.072586],"Phoenix, AZ"
4268,34.22158432,-92.00200653,[ 34.221584 -92.00201 ],"Pine Bluff, AR"
4269,40.54387665,-74.47411346,[ 40.543877 -74.47411 ],"Piscataway, NJ"
4270,40.44216919,-79.99495697,[ 40.44217 -79.99496],"Pittsburgh, PA"
4271,20.62753677,-87.0754776,[ 20.627537 -87.07548 ],"Playa del Carmen, MX"
4272,42.86655045,-112.44353485,[  42.86655  -112.443535],"Pocatello, ID"
4273,43.65921783,-70.2565155,[ 43.659218 -70.256516],"Portland, ME"
4274,45.51601791,-122.681427,[  45.516018 -122.68143 ],"Portland, OR"
4275,41.69932175,-73.92169189,[ 41.69932 -73.92169],"Poughkeepsie, NY"
4276,30.09540558,-95.98719025,[ 30.095406 -95.98719 ],"Prairie View, TX"
4277,33.90394211,-80.89408112,[ 33.903942 -80.89408 ],"Presbyterian, SC"
4278,34.59460068,-112.3364563,[  34.5946  -112.33646],"Prescott Valley, AZ"
4279,38.2039566,-75.69425964,[ 38.203957 -75.69426 ],"Princess Anne, MD"
4280,40.3519783,-74.66074371,[ 40.35198 -74.66074],"Princeton, NJ"
4281,41.82446289,-71.41275024,[ 41.824463 -71.41275 ],"Providence, RI"
4282,40.23512268,-111.6621933,[  40.235123 -111.66219 ],"Provo, UT"
4283,20.65714645,-105.23897552,[  20.657146 -105.238976],"Puerto Vallarta, MX"
4284,46.72972488,-117.18183136,[  46.729725 -117.18183 ],"Pullman, WA"
4285,40.75977707,-73.81729889,[ 40.759777 -73.8173  ],"Queens, NY"
4286,37.14012146,-80.56232452,[ 37.14012  -80.562325],"Radford, VA"
4287,35.78130341,-78.64167786,[ 35.781303 -78.64168 ],"Raleigh, NC"
4288,49.44610977,7.55471992,[49.44611  7.55472],"Ramstein-Miesenbach, GY"
4289,44.08305359,-103.22444153,[  44.083054 -103.22444 ],"Rapid City, SD"
4290,39.52690125,-119.81328583,[  39.5269   -119.813286],"Reno, NV"
4291,37.74776459,-84.29508972,[ 37.747765 -84.29509 ],"Richmond, KY"
4292,37.54076004,-77.43392944,[ 37.54076 -77.43393],"Richmond, VA"
4293,40.89059067,-73.91270447,[ 40.89059  -73.912704],"Riverdale, NY"
4294,33.9805336,-117.37702179,[  33.980534 -117.37702 ],"Riverside, CA"
4295,42.68205643,-83.13381958,[ 42.682056 -83.13382 ],"Rochester, MI"
4296,43.15570831,-77.61254883,[ 43.15571 -77.61255],"Rochester, NY"
4297,34.94135666,-81.03003693,[ 34.941357 -81.03004 ],"Rock Hill, SC"
4298,41.99188614,-87.8633194,[ 41.991886 -87.86332 ],"Rosemont, IL"
4299,32.53246689,-92.63906097,[ 32.532467 -92.63906 ],"Ruston, LA"
4300,38.57693481,-121.49494934,[  38.576935 -121.49495 ],"Sacramento, CA"
4301,40.75847626,-111.88814545,[  40.758476 -111.888145],"Salt Lake City, UT"
4302,29.4251709,-98.49461365,[ 29.42517 -98.49461],"San Antonio, TX"
4303,32.71575928,-117.16381836,[  32.71576 -117.16382],"San Diego, CA"
4304,37.78007889,-122.42015839,[  37.78008 -122.42016],"San Francisco, CA"
4305,37.33479309,-121.88814545,[  37.334793 -121.888145],"San Jose, CA"
4307,18.46630287,-66.10523224,[ 18.466303 -66.10523 ],"San Juan, PR"
4308,35.28261948,-120.66001129,[  35.28262 -120.66001],"San Luis Obispo, CA"
4309,29.88208389,-97.93998718,[ 29.882084 -97.93999 ],"San Marcos, TX"
4310,34.42086792,-119.69834137,[  34.420868 -119.69834 ],"Santa Barbara, CA"
4311,37.3523941,-121.95307922,[  37.352394 -121.95308 ],"Santa Clara, CA"
4312,32.08060837,-81.09009552,[ 32.08061  -81.090096],"Savannah, GA"
4313,47.60322952,-122.33027649,[  47.60323 -122.33028],"Seattle, WA"
4314,31.23036957,121.47370148,[ 31.23037 121.4737 ],"Shanghai, CH"
4315,32.51425171,-93.74777222,[ 32.51425 -93.74777],"Shreveport, LA"
4316,43.54730988,-96.73130035,[ 43.54731 -96.7313 ],"Sioux Falls, SD"
4317,41.87911606,-71.48336029,[ 41.879116 -71.48336 ],"Smithfield, RI"
4318,41.67503357,-86.25196075,[ 41.675034 -86.25196 ],"South Bend, IN"
4319,36.43822861,127.83287048,[ 36.43823 127.83287],"South Korea, SK"
4320,40.74577713,-74.25801849,[ 40.745777 -74.25802 ],"South Orange, NJ"
4321,26.11098289,-97.16571808,[ 26.110983 -97.16572 ],"South Padre Island, TX"
4322,34.99186325,-90.00796509,[ 34.991863 -90.007965],"Southaven, MS"
4323,34.94791412,-81.93466187,[ 34.947914 -81.93466 ],"Spartanburg, SC"
4324,47.6590004,-117.42502594,[  47.659    -117.425026],"Spokane, WA"
4325,39.79935837,-89.64362335,[ 39.79936 -89.64362],"Springfield, IL"
4326,42.10205078,-72.58575439,[ 42.10205  -72.585754],"Springfield, MA"
4327,37.21552277,-93.2923584,[ 37.215523 -93.29236 ],"Springfield, MO"
4328,42.07773972,-78.48258972,[ 42.07774 -78.48259],"St. Bonaventure, NY"
4329,38.6353569,-90.20098877,[ 38.635357 -90.20099 ],"St. Louis, MO"
4330,18.34428978,-64.92964172,[ 18.34429 -64.92964],"St. Thomas, VI"
4331,37.43751526,-122.1657486,[  37.437515 -122.16575 ],"Stanford, CA"
4332,33.46586609,-88.81026459,[ 33.465866 -88.810265],"Starkville, MS"
4333,40.64349747,-74.07620239,[ 40.643497 -74.0762  ],"Staten Island, NY"
4334,32.44876862,-81.77775574,[ 32.44877  -81.777756],"Statesboro, GA"
4335,36.11017609,-97.05857086,[ 36.110176 -97.05857 ],"Stillwater, OK"
4336,37.95754242,-121.29244995,[  37.957542 -121.29245 ],"Stockton, CA"
4337,40.92568588,-73.14112854,[ 40.925686 -73.14113 ],"Stony Brook, NY"
4338,41.80112457,-72.24099731,[ 41.801125 -72.241   ],"Storrs, CT"
4339,26.16920853,-80.29371643,[ 26.169209 -80.29372 ],"Sunrise, FL"
4340,43.04794312,-76.14744568,[ 43.047943 -76.147446],"Syracuse, NY"
4341,30.44074059,-84.27832794,[ 30.44074 -84.27833],"Tallahassee, FL"
4342,27.94742393,-82.45877838,[ 27.947424 -82.45878 ],"Tampa, FL"
4343,33.42552185,-111.94125366,[  33.42552 -111.94125],"Tempe, AZ"
4344,39.46648026,-87.41257477,[ 39.46648  -87.412575],"Terre Haute, IN"
4345,29.79574776,-90.82245636,[ 29.795748 -90.82246 ],"Thibodaux, LA"
4346,41.65529633,-83.5357132,[ 41.655296 -83.53571 ],"Toledo, OH"
4347,18.42357063,-64.6259613,[ 18.42357 -64.62596],"Tortola, VI"
4348,39.4018631,-76.60504913,[ 39.401863 -76.60505 ],"Towson, MD"
4349,31.81009865,-85.97215271,[ 31.810099 -85.97215 ],"Troy, AL"
4350,32.22187805,-110.97122192,[  32.221878 -110.97122 ],"Tucson, AZ"
4351,36.15532684,-95.99208069,[ 36.155327 -95.99208 ],"Tulsa, OK"
4352,34.25744247,-88.70340729,[ 34.257442 -88.70341 ],"Tupelo, MS"
4353,33.21068192,-87.56558228,[ 33.210682 -87.56558 ],"Tuscaloosa, AL"
4354,41.43588638,-72.10977936,[ 41.435886 -72.10978 ],"Uncasville, CT"
4355,40.80330276,-77.85972595,[ 40.803303 -77.859726],"University Park, PA"
4356,38.98106384,-104.85597229,[  38.981064 -104.85597 ],"USAF Academy, CO"
4357,41.47814178,-87.05537415,[ 41.47814  -87.055374],"Valparaiso, IN"
4358,49.26356506,-123.13857269,[  49.263565 -123.13857 ],"Vancouver, BC"
4359,42.78757477,-96.9267807,[ 42.787575 -96.92678 ],"Vermillion, SD"
4360,42.0856514,-76.04920959,[ 42.08565 -76.04921],"Vestal, NY"
4361,40.03804398,-75.3444519,[ 40.038044 -75.34445 ],"Villanova, PA"
4362,31.55682564,-97.13002014,[ 31.556826 -97.13002 ],"Waco, TX"
4363,38.89206314,-77.01991272,[ 38.892063 -77.01991 ],"Washington, DC"
4364,41.76200867,-72.74180603,[ 41.76201  -72.741806],"West Hartford, CT"
4365,40.45475388,-86.91569519,[ 40.454754 -86.915695],"West Lafayette, IN"
4366,40.28586578,-74.01741791,[ 40.285866 -74.01742 ],"West Long Branch, NJ"
4367,41.40118408,-73.97232056,[ 41.401184 -73.97232 ],"West Point, NY"
4368,37.68602371,-97.33557129,[ 37.686024 -97.33557 ],"Wichita, KS"
4369,37.27556229,-76.70901489,[ 37.275562 -76.709015],"Williamsburg, VA"
4370,34.23669815,-77.94619751,[ 34.2367 -77.9462],"Wilmington, NC"
4371,36.09626007,-80.24373627,[ 36.09626 -80.24374],"Winston-Salem, NC"
4372,42.26211929,-71.80223846,[ 42.26212 -71.80224],"Worcester, MA"
4373,41.09832001,-80.65065002,[ 41.09832 -80.65065],"Youngstown, OH"
4374,42.23980713,-83.6145401,[ 42.239807 -83.61454 ],"Ypsilanti, MI"
4376,30.39283371,-88.88708496,[ 30.392834 -88.887085],"Biloxi, MS"
4382,26.53568077,-78.69536591,[ 26.53568  -78.695366],"Freeport, BA"
4383,18.35720253,-66.11086273,[ 18.357203 -66.11086 ],"Guaynabo, PR"
4385,21.6504097,-157.92485046,[  21.65041 -157.92485],"Laie, HI"
4387,41.49222565,-90.48927307,[ 41.492226 -90.48927 ],"Moline, IL"
4389,40.71304703,-74.00723267,[ 40.713047 -74.00723 ],"New York City, NY"
4390,32.8788681,-80.01322937,[ 32.87887 -80.01323],"North Charleston, SC"
4391,29.18931007,-82.13778687,[ 29.18931 -82.13779],"Ocala, FL"
4392,30.18521118,-85.73083496,[ 30.185211 -85.730835],"Panama City, FL"
4396,38.78115463,-90.48692322,[ 38.781155 -90.48692 ],"St. Charles, MO"
4399,18.3520546,-66.00531769,[ 18.352055 -66.00532 ],"Trujillo Alto, PR"
4402,38.81716919,-76.75563049,[ 38.81717 -76.75563],"Upper Marlboro, MD"
4403,20.88694191,-156.50482178,[  20.886942 -156.50482 ],"Wailuku, HI"
4404,28.60024643,-81.33882141,[ 28.600246 -81.33882 ],"Winter Park, FL"
4406,40.72812271,-73.63507843,[ 40.728123 -73.63508 ],"Garden City, NY"
4407,47.50645447,-111.30602264,[  47.506454 -111.30602 ],"Great Falls, MT"
4408,40.33691788,-75.92196655,[ 40.336918 -75.92197 ],"Reading, PA"
4409,40.70059586,-73.59317017,[ 40.700596 -73.59317 ],"Uniondale, NY"
4410,54.59726715,-5.93010902,[54.597267 -5.930109],"Belfast, IR"
4412,18.47245979,-77.92173767,[ 18.47246 -77.92174],"Montego Bay, JA"
4413,25.07822609,-77.33834076,[ 25.078226 -77.33834 ],"Nassau, BA"
4414,33.15066147,-96.82508087,[ 33.15066 -96.82508],"Frisco, TX"
4415,19.31822586,-81.24118042,[ 19.318226 -81.24118 ],"Grand Cayman, CI"
4416,25.86585236,-80.18946075,[ 25.865852 -80.18946 ],"Miami Shores, FL"
4417,43.61555862,-84.2472229,[ 43.61556 -84.24722],"Midland, MI"
4421,31.29310036,-92.46328735,[ 31.2931  -92.46329],"Alexandria, LA"
4422,25.74902534,-79.25958252,[ 25.749025 -79.25958 ],"Bimini, BA"
4423,40.47709274,-88.99321747,[ 40.477093 -88.99322 ],"Bloomington, IL"
4424,18.38186455,-65.9569931,[ 18.381865 -65.95699 ],"Carolina, PR"
4425,34.20262527,-90.5749588,[ 34.202625 -90.57496 ],"Clarksdale, MS"
4426,37.31931305,-122.02926636,[  37.319313 -122.02927 ],"Cupertino, CA"
4427,26.06508636,-80.23220825,[ 26.065086 -80.23221 ],"Davie, FL"
4428,40.6745491,-89.53993988,[ 40.67455 -89.53994],"East Peoria, IL"
4429,26.12416267,-80.14358521,[ 26.124163 -80.143585],"Fort Lauderdale, FL"
4430,35.00759888,-80.94432068,[ 35.0076  -80.94432],"Fort Mill, SC"
4431,42.96546173,-85.67017365,[ 42.96546 -85.67017],"Grand Rapids, MI"
4432,19.72525787,-155.08908081,[  19.725258 -155.08908 ],"Hilo, HI"
4433,29.59584808,-90.71936798,[ 29.595848 -90.71937 ],"Houma, LA"
4434,30.22106361,-92.65866089,[ 30.221064 -92.65866 ],"Jennings, LA"
4435,46.2026062,-119.11696625,[  46.202606 -119.11697 ],"Kennewick, WA"
4436,42.39506531,-83.36949921,[ 42.395065 -83.3695  ],"Livonia, MI"
4437,26.52376366,-78.65973663,[ 26.523764 -78.65974 ],"Lucaya, BA"
4438,28.07993126,-80.60351563,[ 28.079931 -80.603516],"Melbourne, FL"
4439,33.44940567,-90.50408173,[ 33.449406 -90.50408 ],"Moorehead, MS"
4440,32.79051208,-79.87651825,[ 32.790512 -79.87652 ],"Mt. Pleasant, SC"
4441,43.13721085,-79.03512573,[ 43.13721  -79.035126],"Niagara University, NY"
4442,43.65189362,-79.38171387,[ 43.651894 -79.381714],"Toronto, ON"
4443,26.71443939,-80.0549469,[ 26.71444 -80.05495],"West Palm Beach, FL"
4444,34.80131531,-87.67326355,[ 34.801315 -87.67326 ],"Florence, AL"
4445,38.20994568,-84.55976868,[ 38.209946 -84.55977 ],"Georgetown, KY"
4446,36.60435104,-121.85463715,[  36.60435 -121.85464],"Seaside, CA"
4447,28.2946949,-81.40253448,[ 28.294695 -81.402534],"Kissimmee, FL"
4448,42.72867966,-83.17463684,[ 42.72868 -83.17464],"Oakland, MI"
4449,27.77206993,-82.63848877,[ 27.77207 -82.63849],"St. Petersburg, FL"
4450,37.56845856,-84.29679108,[ 37.56846 -84.29679],"Berea, KY"
4451,42.40134811,-82.19016266,[ 42.40135 -82.19016],"Chatham, ON"
4452,20.88803291,-156.46784973,[  20.888033 -156.46785 ],"Kahului, HI"
4453,43.80876541,-91.25186157,[ 43.808765 -91.25186 ],"La Crosse, WI"
4454,20.79049301,-156.33694458,[  20.790493 -156.33694 ],"Maui, HI"
4455,40.78575516,-74.26506042,[ 40.785755 -74.26506 ],"West Orange, NJ"
4456,41.03272629,-73.7663269,[ 41.032726 -73.76633 ],"White Plains, NY"
4457,28.56511879,-81.58901215,[ 28.565119 -81.58901 ],"Winter Garden, FL"
4458,33.47203445,-86.7890625,[ 33.472034 -86.78906 ],"Homewood, AL"
4459,34.41316986,-119.85704803,[  34.41317 -119.85705],"Isla Vista, CA"
4460,41.76592636,-72.23377991,[ 41.765926 -72.23378 ],"Mansfield, CT"
4461,41.45302963,-72.13633728,[ 41.45303 -72.13634],"Montville, CT"
4462,42.68766785,-71.1215744,[ 42.687668 -71.121574],"North Andover, MA"
4463,38.95154953,-92.32859039,[ 38.95155 -92.32859],"Columbia, MO"
4464,40.28319931,-74.73177338,[ 40.2832  -74.73177],"Lawrence Township, NJ"
4465,42.06181335,-78.42311096,[ 42.061813 -78.42311 ],"Olean, NY"
4466,39.82295227,-84.01794434,[ 39.822952 -84.017944],"Fairborn, OH"
4467,40.02271271,-75.32086945,[ 40.022713 -75.32087 ],"Bryn Mawr, PA"
4468,41.25360107,-76.04790497,[ 41.2536   -76.047905],"Moon, PA"
4469,41.44097137,-71.50228882,[ 41.44097 -71.50229],"South Kingstown, RI"
4470,39.92457962,-83.81013489,[ 39.92458  -83.810135],"Springfield, OH"
4471,31.99743271,-102.07804108,[  31.997433 -102.07804 ],"Midland, TX"
4472,20.63138962,-87.07305908,[ 20.63139 -87.07306],"Riviera Maya, MX"
4473,40.87559891,-73.15625763,[ 40.8756  -73.15626],"St. James, JA"
4474,48.42750168,-123.36725616,[  48.4275   -123.367256],"Victoria, BC"
4475,39.74443054,-75.54509735,[ 39.74443 -75.5451 ],"Wilmington, DE"
4476,37.108284,-113.58327484,[  37.108284 -113.583275],"Saint George, UT"
4477,32.22065735,-98.20214844,[ 32.220657 -98.20215 ],"Stephenville, TX"
4478,32.83867645,-117.25404358,[  32.838676 -117.25404 ],"La Jolla, CA"
4479,31.87805939,-91.13916779,[ 31.87806 -91.13917],"Alcorn State, MS"
4480,40.71500015,-73.72277832,[ 40.715   -73.72278],"Belmont Park, NY"
4481,33.50187302,-117.66281891,[  33.501873 -117.66282 ],"San Juan Capistrano, CA"
4482,44.94371796,-93.09428406,[ 44.943718 -93.094284],"St. Paul, MN"
4483,34.97987366,-101.92756653,[  34.979874 -101.92757 ],"Canyon, TX"
4484,26.1474514,-81.7954483,[ 26.147451 -81.79545 ],"Naples, FL"
4485,36.97414017,-122.02880096,[  36.97414 -122.0288 ],"Santa Cruz, CA"
4486,36.03409576,-114.98445129,[  36.034096 -114.98445 ],"Henderson, NV"
4487,30.40689659,-87.21756744,[ 30.406897 -87.21757 ],"Pensacola, FL"
4488,33.25063324,-95.89819336,[ 33.250633 -95.89819 ],"Commerce, TX"
4489,53.34409714,-6.2674861,[53.344097 -6.267486],"Dublin, IR"
4490,42.02978897,-71.1314621,[ 42.02979 -71.13146],"Easton, MA"
4491,45.5837326,-73.75006866,[ 45.583733 -73.75007 ],"Laval, QC"
4492,51.50015259,-0.12623601,[51.500153 -0.126236],"London, GB"
4493,40.69643784,-74.26988983,[ 40.696438 -74.26989 ],"Union, NJ"
4494,20.78145599,-156.46269226,[  20.781456 -156.46269 ],"Kihei, HI"
